{
  "version": "2026-04-13",
  "cities": [
    {
      "cityId": "par",
      "countryId": "FR",
      "name": "Paris",
      "issueLabel": "buddy-par",
      "issueNumber": null,
      "active": false,
      "firstSeeded": "2026-04-13",
      "lat": 48.8566,
      "lng": 2.3522,
      "notes": null
    },
    {
      "cityId": "ber",
      "countryId": "DE",
      "name": "Berlin",
      "issueLabel": "buddy-ber",
      "issueNumber": null,
      "active": false,
      "firstSeeded": "2026-04-13",
      "lat": 52.5200,
      "lng": 13.4050,
      "notes": null
    },
    {
      "cityId": "mad",
      "countryId": "ES",
      "name": "Madrid",
      "issueLabel": "buddy-mad",
      "issueNumber": null,
      "active": false,
      "firstSeeded": "2026-04-13",
      "lat": 40.4168,
      "lng": -3.7038,
      "notes": null
    },
    {
      "cityId": "rom",
      "countryId": "IT",
      "name": "Rome",
      "issueLabel": "buddy-rom",
      "issueNumber": null,
      "active": false,
      "firstSeeded": "2026-04-13",
      "lat": 41.9028,
      "lng": 12.4964,
      "notes": null
    },
    {
      "cityId": "bcn",
      "countryId": "ES",
      "name": "Barcelona",
      "issueLabel": "buddy-bcn",
      "issueNumber": null,
      "active": false,
      "firstSeeded": "2026-04-13",
      "lat": 41.3874,
      "lng": 2.1686,
      "notes": null
    },
    {
      "cityId": "ams",
      "countryId": "NL",
      "name": "Amsterdam",
      "issueLabel": "buddy-ams",
      "issueNumber": null,
      "active": false,
      "firstSeeded": "2026-04-13",
      "lat": 52.3676,
      "lng": 4.9041,
      "notes": null
    },
    {
      "cityId": "prg",
      "countryId": "CZ",
      "name": "Prague",
      "issueLabel": "buddy-prg",
      "issueNumber": null,
      "active": false,
      "firstSeeded": "2026-04-13",
      "lat": 50.0755,
      "lng": 14.4378,
      "notes": null
    },
    {
      "cityId": "vie",
      "countryId": "AT",
      "name": "Vienna",
      "issueLabel": "buddy-vie",
      "issueNumber": null,
      "active": false,
      "firstSeeded": "2026-04-13",
      "lat": 48.2082,
      "lng": 16.3738,
      "notes": null
    },
    {
      "cityId": "bud",
      "countryId": "HU",
      "name": "Budapest",
      "issueLabel": "buddy-bud",
      "issueNumber": null,
      "active": false,
      "firstSeeded": "2026-04-13",
      "lat": 47.4979,
      "lng": 19.0402,
      "notes": null
    },
    {
      "cityId": "lis",
      "countryId": "PT",
      "name": "Lisbon",
      "issueLabel": "buddy-lis",
      "issueNumber": null,
      "active": false,
      "firstSeeded": "2026-04-13",
      "lat": 38.7223,
      "lng": -9.1393,
      "notes": null
    },
    {
      "cityId": "ath",
      "countryId": "GR",
      "name": "Athens",
      "issueLabel": "buddy-ath",
      "issueNumber": null,
      "active": false,
      "firstSeeded": "2026-04-13",
      "lat": 37.9838,
      "lng": 23.7275,
      "notes": null
    },
    {
      "cityId": "krk",
      "countryId": "PL",
      "name": "Krakow",
      "issueLabel": "buddy-krk",
      "issueNumber": null,
      "active": false,
      "firstSeeded": "2026-04-13",
      "lat": 50.0647,
      "lng": 19.9450,
      "notes": null
    },
    {
      "cityId": "waw",
      "countryId": "PL",
      "name": "Warsaw",
      "issueLabel": "buddy-waw",
      "issueNumber": null,
      "active": false,
      "firstSeeded": "2026-04-13",
      "lat": 52.2297,
      "lng": 21.0122,
      "notes": null
    },
    {
      "cityId": "cph",
      "countryId": "DK",
      "name": "Copenhagen",
      "issueLabel": "buddy-cph",
      "issueNumber": null,
      "active": false,
      "firstSeeded": "2026-04-13",
      "lat": 55.6761,
      "lng": 12.5683,
      "notes": null
    },
    {
      "cityId": "sto",
      "countryId": "SE",
      "name": "Stockholm",
      "issueLabel": "buddy-sto",
      "issueNumber": null,
      "active": false,
      "firstSeeded": "2026-04-13",
      "lat": 59.3293,
      "lng": 18.0686,
      "notes": null
    },
    {
      "cityId": "dub",
      "countryId": "IE",
      "name": "Dublin",
      "issueLabel": "buddy-dub",
      "issueNumber": null,
      "active": false,
      "firstSeeded": "2026-04-13",
      "lat": 53.3498,
      "lng": -6.2603,
      "notes": null
    },
    {
      "cityId": "bru",
      "countryId": "BE",
      "name": "Brussels",
      "issueLabel": "buddy-bru",
      "issueNumber": null,
      "active": false,
      "firstSeeded": "2026-04-13",
      "lat": 50.8503,
      "lng": 4.3517,
      "notes": null
    },
    {
      "cityId": "muc",
      "countryId": "DE",
      "name": "Munich",
      "issueLabel": "buddy-muc",
      "issueNumber": null,
      "active": false,
      "firstSeeded": "2026-04-13",
      "lat": 48.1351,
      "lng": 11.5820,
      "notes": null
    },
    {
      "cityId": "mil",
      "countryId": "IT",
      "name": "Milan",
      "issueLabel": "buddy-mil",
      "issueNumber": null,
      "active": false,
      "firstSeeded": "2026-04-13",
      "lat": 45.4642,
      "lng": 9.1900,
      "notes": null
    },
    {
      "cityId": "ist",
      "countryId": "TR",
      "name": "İstanbul",
      "issueLabel": "buddy-ist",
      "issueNumber": null,
      "active": false,
      "firstSeeded": "2026-04-13",
      "lat": 41.0082,
      "lng": 28.9784,
      "notes": "Coordinates match countries.json cities[] entry."
    }
  ]
}
